{
"type": "FeatureCollection",
"crs": { "type": "name", "properties": { "name": "urn:ogc:def:crs:OGC:1.3:CRS84" } },
"features": [
{ "type": "Feature", "properties": { "UID": 1, "development_description": "the retention of a single storey reception building (33sqm), for use as a ticket sales office/shop & visitor information centre, the retention of the refurbishment of the former dairy building (30sqm) for use as a tearooms/cafe & retention of pergola structure provided to cover the outdoor patron seating area, the retention of a single storey toilet block (25sqm) within the walled garden, containing male, female & disabled toilets & baby changing facilities, the retention & permission for the continuance of use of the former grain store & horse-yard building (514.5sqm) as a multi-purpose function room comprising of dining areas, kitchens, bar, staff facilities & storage & the retention of the toilet facilities (44sqm) associated with the horse-yard buildings & the continuance of use of the horse-yard buildings & associated external yards for farmers market, PERMISSION for lands to be used as overflow parking (0.49ha) in the Marfield area of the estate & associated works accessed via the existing main entrance to Kilruddery House & Gardens, the development includes drainage works & all associated site & development works within site", "development_address": "Kilruddery House , Southern Cross Road , Bray", "application_status": "APPLICATION FINALISED" }, "geometry": { "type": "Point", "coordinates": [ -6.101873253, 53.18162102 ] } },
{ "type": "Feature", "properties": { "UID": 2, "development_description": "construstion of a single storey sessional classroom 24sqm, together with connection to existing services & all associated works", "development_address": "No.1 Ellersie Villas , Sidmonton Road , Bray", "application_status": "APPLICATION FINALISED" }, "geometry": { "type": "Point", "coordinates": [ -6.102448556, 53.20023367 ] } },
{ "type": "Feature", "properties": { "UID": 3, "development_description": "amendments to the permitted 8 no light industrial and distribution units built in 2 no two storey blocks which were originally permitted under Register Reference 02/6052 and 03/9429 and amended by Register Reference 04/1016.  The amendments for which retention permission is now sought include amended bin storage arrangements, chances to the layout and quantum of car parking (with a total of 43 no car parking spaces constructed), the omission of all originally proposed lamp standards and the installation of wall mounted floodlights on Blocks A and B, the construction of a precast concrete panel wall along the southern boundary, the omission of landscape planting at the entrance road and eastern boundary, and all other ancillary site works above and below ground.  PERMISSION is sought for (a) completion of certain minor works as originally permitted under original planning permissions (including specified hard and soft landscaping and boundary treatments), (b) 2 no proposed windows to match existing (1 no window in the west facade and 1 no window in the east facade) of unit number 6 of block B and (c) the erection of a new wall mounted floodlight at the south east corner of Block B", "development_address": "6 Rathnew Industrial Estate , Rathnew , Co. Wicklow", "application_status": "APPLICATION FINALISED" }, "geometry": { "type": "Point", "coordinates": [ -6.088365797, 52.99387579 ] } },
{ "type": "Feature", "properties": { "UID": 4, "development_description": "440 sqm agricultural shed which is to contain cattle holding pens, underground slurry storage, slatted area and associated site works", "development_address": "Tigroney , Avoca , Co. Wicklow", "application_status": "APPLICATION FINALISED" }, "geometry": { "type": "Point", "coordinates": [ -6.204128323, 52.87828074 ] } },
{ "type": "Feature", "properties": { "UID": 5, "development_description": "2 no. slatted tanks with feed rails & concrete aprons adjacent to existing cattle shed & all associated wsite works in my farmyard", "development_address": "Coolkenna , Tullow , Co. Wicklow", "application_status": "APPLICATION FINALISED" }, "geometry": { "type": "Point", "coordinates": [ -6.101602492, 53.20671098 ] } },
{ "type": "Feature", "properties": { "UID": 6, "development_description": "the demolition of Martello Cottage & construction of a single storey split level house (241sqm) along with associated site works", "development_address": "Martello Cottage , Royal Marine Terrace , Bray", "application_status": "APPLICATION FINALISED" }, "geometry": { "type": "Point", "coordinates": [ -6.170851829, 53.20621072 ] } },
{ "type": "Feature", "properties": { "UID": 7, "development_description": "a) subdivision of the site, construction of an additional single storey dwelling located to the north-east of the existing dwelling & associated site works, & b) retention for the detached single story home office to the north east of the existing dwelling", "development_address": "Beech View , Barnaslingan Lane , Enniskerry", "application_status": "APPLICATION FINALISED" }, "geometry": { "type": "Point", "coordinates": [ -6.0567543, 53.11103604 ] } },
{ "type": "Feature", "properties": { "UID": 8, "development_description": "subdivision of family holding & construction of a one-and-a-half-storey dwelling-house, detached double garage, on-site effluent disposal system, connection to public watermain, together with all associated site works.  Application to include upgrading of sightlines at existing vehicular entrance and the provision of a new driveway to serve the proposed dwelling together with all associated site works", "development_address": "Ballydonarea , Kilcoole , Co. Wicklow", "application_status": "APPLICATION FINALISED" }, "geometry": { "type": "Point", "coordinates": [ -6.13448981, 53.14446157 ] } },
{ "type": "Feature", "properties": { "UID": 9, "development_description": "alterations to a nursing home development permitted under planning ref. no. 09/528 (later modified under planning ref. no. 11/4461). The alterations provide for: (i) an increase in overall floor area comprising circa 130sqm to provide for additional ancillary internal service & circulation spaces, (ii) an increase in bed space numbers from 78 to 106 arising from revised internal layout requirements; (iii) the omission of accomodation block, (iv) installation of a gas tank &, (v) all associated site works", "development_address": "Kilmurry Cottages , Kilmacanogue South , Wicklow", "application_status": "APPLICATION FINALISED" }, "geometry": { "type": "Point", "coordinates": [ -6.097851859, 53.19857241 ] } },
{ "type": "Feature", "properties": { "UID": 10, "development_description": "proposed detached 2-storey dwelling & detached garage together with ancillary site development works including lanscaping/planting, effluent disposal system to current EPA standards with entrance off existing access road (including minor surfacing/drainage works)", "development_address": "Stilebawn , Delgany , Co. Wicklow", "application_status": "APPLICATION FINALISED" }, "geometry": { "type": "Point", "coordinates": [ -6.114871927, 53.01137183 ] } },
{ "type": "Feature", "properties": { "UID": 11, "development_description": "1. demolition of existing shed (52 msq) to existing rear garden. 2. construction of new 3 bed single storey mews dwelling (143sqm) to rear garden. 3. Modifications to existing vehicular entrance & parking to front of existing dwelling. 4. all associated requisite ancillary site works", "development_address": "'St. Andrews' , Meath Road , Bray", "application_status": "APPLICATION FINALISED" }, "geometry": { "type": "Point", "coordinates": [ -6.237825525, 52.93555415 ] } },
{ "type": "Feature", "properties": { "UID": 12, "development_description": "dwelling house, shared entrance, driveway, landscaping and drainage and ancilary works ", "development_address": "Killadreenan , Newtownmountkennedy , Co. Wicklow", "application_status": "DECISION MADE" }, "geometry": { "type": "Point", "coordinates": [ -6.11350782, 53.21140491 ] } },
{ "type": "Feature", "properties": { "UID": 13, "development_description": "the development of nine detached 2-storey dwellings, a riverside walkway, landscaping and associated site development works", "development_address": "Low Town , Rathdrum , Co. Wicklow", "application_status": "APPLICATION FINALISED" }, "geometry": { "type": "Point", "coordinates": [ -6.059158839, 53.13710771 ] } },
{ "type": "Feature", "properties": { "UID": 14, "development_description": "2 no 2 storey detached dwellings and adjacent garages with connection to all public services and to include all associated site works", "development_address": "Mount Alto , Ashford , Co. Wicklow", "application_status": "APPLICATION FINALISED" }, "geometry": { "type": "Point", "coordinates": [ -6.27582286, 53.01713253 ] } },
{ "type": "Feature", "properties": { "UID": 15, "development_description": "1) Demolition of existing 1 bedroom 19sqm bungalow & the construction of a new 215sqm replacement 3 bedroom bungalow, 2) Reducing size of existing vehicular entrance with the low level hedging & associated slayed walling/driveway entrance piers allowing for adequate sight lines onto public road, 3) Proposed new waste water treatment system to current EPA standards & all associated site/drainage works", "development_address": "Mullinacuffe , Ballyrahan , Tinahely", "application_status": "APPLICATION FINALISED" }, "geometry": { "type": "Point", "coordinates": [ -6.107227677, 53.20338769 ] } },
{ "type": "Feature", "properties": { "UID": 16, "development_description": "eight number 3 bedroom semi detached two storey houses and associated site works", "development_address": "Avondale Meadows , Union Lane , Rathdrum", "application_status": "APPLICATION FINALISED" }, "geometry": { "type": "Point", "coordinates": [ -6.629320218, 52.92119216 ] } },
{ "type": "Feature", "properties": { "UID": 17, "development_description": "a special needs dwelling with all ancillary works within a 0.2 acre site", "development_address": "Knockroe , Delgany , Co. Wicklow", "application_status": "APPLICATION FINALISED" }, "geometry": { "type": "Point", "coordinates": [ -6.479709125, 52.73008216 ] } },
{ "type": "Feature", "properties": { "UID": 18, "development_description": "the following: 1) permission for revised site boundaries to that granted under ref no 14/1241 2) Permission for revised two story house plan and all associated site works", "development_address": "5 Wingfield , Kilcroney Lane , Bray", "application_status": "APPLICATION FINALISED" }, "geometry": { "type": "Point", "coordinates": [ -6.033089995, 52.9788579 ] } },
{ "type": "Feature", "properties": { "UID": 19, "development_description": "a detached, single storey, pitched roof double garage with utility room & WC with gross floor area of 47.4sqm on the south-east corner of the site", "development_address": "Rochfort , Partland Road , The Burnaby", "application_status": "APPLICATION FINALISED" }, "geometry": { "type": "Point", "coordinates": [ -6.109503448, 53.20119306 ] } },
{ "type": "Feature", "properties": { "UID": 20, "development_description": "proposed new dwelling & garage, a new vehicular entrance & road, connection to all services & associated site works as well as the demolition of derelict dwelling (ruin)", "development_address": "Mount Usher , Ashford , Co. Wicklow", "application_status": "APPLICATION FINALISED" }, "geometry": { "type": "Point", "coordinates": [ -6.116521503, 53.19379723 ] } },
{ "type": "Feature", "properties": { "UID": 21, "development_description": "5 bedroom 2 storey dwelling with attic room accommodation (275 sqm), revised vehicular entrance to serve both existing dwelling and proposed dwelling, new surface and foul connections to existing sewers, all the above together with all associated site works", "development_address": "Side Garden of 10 Burnaby Woods , Greystones , Co. Wicklow", "application_status": "APPLICATION FINALISED" }, "geometry": { "type": "Point", "coordinates": [ -6.468507827, 53.19483233 ] } },
{ "type": "Feature", "properties": { "UID": 22, "development_description": "construction of a dwelling, effluent disposal system & associated siteworks", "development_address": "Laragh East , Laragh , Co. Wicklow", "application_status": "APPLICATION FINALISED" }, "geometry": { "type": "Point", "coordinates": [ -6.161241841, 52.79719447 ] } },
{ "type": "Feature", "properties": { "UID": 23, "development_description": "proposed subdivision of previously granted commercial unit (ref. no. 15/737) to two separate commercial units with shop fronts", "development_address": "Florence Road , Bray , Co. Wicklow", "application_status": "APPLICATION FINALISED" }, "geometry": { "type": "Point", "coordinates": [ -6.228599863, 53.06395244 ] } },
{ "type": "Feature", "properties": { "UID": 24, "development_description": "a 261.4sqm detached dormer bungalow, 30sqm detached garage, access from existing entrance & driveway, waste water treatment system & bored well, together with all associated landscaping & ancillary works", "development_address": "Talbotstown Lower , Kiltegan , Co. Wicklow", "application_status": "APPLICATION FINALISED" }, "geometry": { "type": "Point", "coordinates": [ -6.13157066, 52.99441536 ] } },
{ "type": "Feature", "properties": { "UID": 25, "development_description": "to erect stable block, concrete aprons & all associated site works in my farmyard", "development_address": "Kilmullin , (ED Lower Newcastle) , Newtownmountkennedy", "application_status": "APPLICATION FINALISED" }, "geometry": { "type": "Point", "coordinates": [ -6.112906876, 53.19415543 ] } },
{ "type": "Feature", "properties": { "UID": 26, "development_description": "to erect a slatted cattle shed, concrete aprons and all associated site works", "development_address": "Parkmore , Carnew , Co. Wicklow", "application_status": "APPLICATION FINALISED" }, "geometry": { "type": "Point", "coordinates": [ -6.271955785, 52.83001541 ] } },
{ "type": "Feature", "properties": { "UID": 27, "development_description": "modifications and alterations of dwelling type including the relocation of same on site to that previously granted permission under PRR 14/1976.  The proposed secondary treatment system to current EPA guidelines, percolation area, entrance and all associated site works will remain unchanged and stay as granted under PRR 14/1976", "development_address": "Site No. 2  , Newcastle Upper , Newcastle", "application_status": "APPLICATION FINALISED" }, "geometry": { "type": "Point", "coordinates": [ -6.159529782, 52.77817768 ] } },
{ "type": "Feature", "properties": { "UID": 28, "development_description": "the proposed conversion of the existing upper floor attic space of an existing c.140m2 dwelling.  The conversion will include 3 no. dormer structures to the front and rear of dwelling, rooflights, new stairs and will provide c.68m2 habitable accommodation.  Accommodation includes 2 bedrooms, dressing area and en-suite and the remaining non habitable floor will be retained for storage purposes and all associated site works", "development_address": "Castle Avenue , Wicklow Town , Co. Wicklow", "application_status": "APPLICATION FINALISED" }, "geometry": { "type": "Point", "coordinates": [ -6.09817909, 53.19465915 ] } },
{ "type": "Feature", "properties": { "UID": 29, "development_description": "change of use of Block E from use as an office as permitted under Planning Ref No 00/66 to use as an educational facility", "development_address": "Bray Civic Centre , Main Street , Bray", "application_status": "APPLICATION FINALISED" }, "geometry": { "type": "Point", "coordinates": [ -6.11350782, 53.21140491 ] } },
{ "type": "Feature", "properties": { "UID": 30, "development_description": "reclamation of land through the filling of material comprising clay, silt, sand, gravel or stone on a site having an area of 1.437 ha for the purpose of improvement of land, together with site access and roadway and other ancillary site works.  This proposed development relates to an activity which requires a waste licence", "development_address": "Ballinaclogh , Rathnew , Co. Wicklow", "application_status": "APPLICATION FINALISED" }, "geometry": { "type": "Point", "coordinates": [ -6.202769008, 52.91810684 ] } },
{ "type": "Feature", "properties": { "UID": 31, "development_description": "revision of boundaries to inrocporate area of circa 0.0037 hectares that formed part of public open space under planning register reference 84/95, new boundary to consist of block wall 1.8m high plastered to match existing at side of house 20m long with timber post and rail fence 900mm high with hedge planted on inside at area to side to front of house", "development_address": "26 Giltspur Wood , Bray , Co. Wicklow", "application_status": "APPLICATION FINALISED" }, "geometry": { "type": "Point", "coordinates": [ -6.127987647, 53.19158412 ] } },
{ "type": "Feature", "properties": { "UID": 32, "development_description": "dwelling and garage as constructed.  The dwelling and garage were previously granted under PRR 1231/77", "development_address": "Kilbride Td , Manor Kilbride , Co. Wicklow", "application_status": "APPLICATION FINALISED" }, "geometry": { "type": "Point", "coordinates": [ -6.085677033, 53.16131796 ] } },
{ "type": "Feature", "properties": { "UID": 33, "development_description": "commercial unit as constructed on site - previously granted planning permission under file ref number 02/610091 and Permission for the conversion of the existing commercial unit to a two bedroom townhouse and all associated site works", "development_address": "3 Manifolds Lane , Arklow , Co. Wicklow", "application_status": "APPLICATION FINALISED" }, "geometry": { "type": "Point", "coordinates": [ -6.497866061, 52.863791 ] } },
{ "type": "Feature", "properties": { "UID": 34, "development_description": "development to demolish and redevelop the existing licenced discount foodstore and the construction of a new mono-pitched 2 storey licenced discount foodstore with a gross floor area of 2752m2 and a net retail sales area of 1685m2 including ancillary off-licence use; relocation of vehicular entrance, removal of all existing signs and replacement with free standing and building mounted signage; refrigeration and air conditioning plant and equipment; reconfiguration of existing car park to provide a total of 181 parking spaces, bicycle parking; trolley bay, external bin storage, hard and soft landscaping, with services to connect to existing connections and all other ancillary and associated site works above and below ground level to complete the development ", "development_address": "Blacklion centre , Blacklion , Coolagad", "application_status": "APPLICATION FINALISED" }, "geometry": { "type": "Point", "coordinates": [ -6.127180174, 53.1932438 ] } },
{ "type": "Feature", "properties": { "UID": 35, "development_description": "to erect a straw bedded acttle shed, underground effluent tank & to carry out a;; ancillary & associated works", "development_address": "Park , Clonegal , Enniscorthy", "application_status": "APPLICATION FINALISED" }, "geometry": { "type": "Point", "coordinates": [ -6.501025961, 53.17067776 ] } },
{ "type": "Feature", "properties": { "UID": 36, "development_description": "change of use od c. 33.8sqm gross of the existing storage area to retail sales area, providing for an increase in the pharmacy area of the store from 42.7sqm to c. 76.5sqm gross", "development_address": "Tesco Store , Wexford Road , Arklow Town", "application_status": "APPLICATION FINALISED" }, "geometry": { "type": "Point", "coordinates": [ -6.674539363, 52.99053011 ] } },
{ "type": "Feature", "properties": { "UID": 37, "development_description": "1. the construction of a dormer style dwelling with garage, 2. to widen the existing entrance & to upgrade the existing lane, 3. to connect the proposed dwelling to mains & all ancillary works", "development_address": "Togher More , Roundwood , Co. Wicklow", "application_status": "APPLICATION FINALISED" }, "geometry": { "type": "Point", "coordinates": [ -6.063445523, 53.14729071 ] } },
{ "type": "Feature", "properties": { "UID": 38, "development_description": "housing development (44 dwellings) comprising of 10 no 2.5 storey 4 bedroom detached houses (type C), 24 no 2 storey 3bedroom semi detached houses with optional 4th bedroom in attic (types A and B), 4 no 2 storey 3 bedroom townhouses (type D) and 6 no 2 storey 2 bedroom townhouses (type E) together with ancillary site development works including estate roads, services, landscaped open space and planting", "development_address": "Ballynerrin Towland , Keatingstown Road , Wicklow", "application_status": "APPLICATION FINALISED" }, "geometry": { "type": "Point", "coordinates": [ -6.12439623, 53.19408411 ] } },
{ "type": "Feature", "properties": { "UID": 39, "development_description": "the construction of 12 no. dwellings together with estate layout comprising of roads, services and associated siteworks; on a site and to a layout similar to that as previously granted planning permission under Plan Ref 04/1308", "development_address": "Ashford , Co. Wicklow  ", "application_status": "APPLICATION FINALISED" }, "geometry": { "type": "Point", "coordinates": [ -6.14832599, 52.79546114 ] } },
{ "type": "Feature", "properties": { "UID": 40, "development_description": "construction of a single rural dormer dwelling and garage with wastewater treatment system and all associated site works", "development_address": "Ballyknockan Beg , Ashford , Co. Wicklow", "application_status": "APPLICATION FINALISED" }, "geometry": { "type": "Point", "coordinates": [ -6.110393892, 53.20217335 ] } },
{ "type": "Feature", "properties": { "UID": 41, "development_description": "conversion of attached garage to habitable room including front porch and ancillary works", "development_address": "139 Charnwood , Bray , Co. Wicklow", "application_status": "APPLICATION FINALISED" }, "geometry": { "type": "Point", "coordinates": [ -6.16403926, 52.79158932 ] } },
{ "type": "Feature", "properties": { "UID": 42, "development_description": "development consisting of the construction of a new single storey detached dwelling house consisting of: three bedrooms and associated accommodation 172sqm in area, new garage, new entrance gates and pillars, associated site works, new connection to public services", "development_address": "Ballycoog  , Aughrim , Co. Wicklow", "application_status": "APPLICATION FINALISED" }, "geometry": { "type": "Point", "coordinates": [ -6.207865646, 52.79484984 ] } },
{ "type": "Feature", "properties": { "UID": 43, "development_description": "to construct solar panels", "development_address": "Moneylands , Gorey Road , Arklow", "application_status": "APPLICATION FINALISED" }, "geometry": { "type": "Point", "coordinates": [ -6.219445362, 53.07869096 ] } },
{ "type": "Feature", "properties": { "UID": 44, "development_description": "scaffold", "development_address": "46 Cuala Road , Bray , Co. Wicklow", "application_status": "DECISION MADE" }, "geometry": { "type": "Point", "coordinates": [ -6.566724353, 52.9302983 ] } },
{ "type": "Feature", "properties": { "UID": 45, "development_description": "a new well & an upgrade/relocation of the existing waste water system by provision of a new packaged affluent disposal system to current EPA standards together with all associated site works", "development_address": "Ballinabarney , Rathnew , Co. Wicklow", "application_status": "APPLICATION FINALISED" }, "geometry": { "type": "Point", "coordinates": [ -6.16497704, 53.19286692 ] } },
{ "type": "Feature", "properties": { "UID": 46, "development_description": "double garage & plant room", "development_address": "5 Wingfield , Kilcroney Lane , Bray", "application_status": "APPLICATION FINALISED" }, "geometry": { "type": "Point", "coordinates": [ -6.465767644, 52.79785935 ] } },
{ "type": "Feature", "properties": { "UID": 47, "development_description": "minor alterations to dwelling house as granted under planning reference 14/1541 and for proposed alterations on on site wastewater treatment system and relocation of private well", "development_address": "Drummin  , Parkbridge , Clonegal", "application_status": "APPLICATION FINALISED" }, "geometry": { "type": "Point", "coordinates": [ -6.207984796, 53.09285082 ] } },
{ "type": "Feature", "properties": { "UID": 48, "development_description": "extend the appropriate period of a permission - 10/3103 - revised house type to previous planning permission 07/1977 for dwelling house, septic tank to EPA standards and all associated site works", "development_address": "Ashtown , Roundwood , Co. Wicklow", "application_status": "APPLICATION FINALISED" }, "geometry": { "type": "Point", "coordinates": [ -6.101668949, 53.19464752 ] } },
{ "type": "Feature", "properties": { "UID": 49, "development_description": "to erect a new cubicle shed with slatted tank, an over ground circular slurry store, & associated works", "development_address": "Ballindoyle , Rathdrum , Co. Wicklow", "application_status": "APPLICATION FINALISED" }, "geometry": { "type": "Point", "coordinates": [ -6.071232349, 53.12592327 ] } },
{ "type": "Feature", "properties": { "UID": 50, "development_description": "to re-position the house on site, erect a larger garage, extend the ground floor of the house on the south eastern side & form balcony over with double doors to bedroom, to the house & site layout previously approved under Planning Ref 12/6472", "development_address": "Site 6 Druids Avenue , Druids Glen Golf Resort , Newtownmountkennedy", "application_status": "APPLICATION FINALISED" }, "geometry": { "type": "Point", "coordinates": [ -6.132356628, 53.15934785 ] } },
{ "type": "Feature", "properties": { "UID": 51, "development_description": "to construct a dwelling house onto side of 14 Herbert Park, Bray, Co. Wicklow, which will incorporate a portion of 14 Herbert Park to make up a new 4 Bedroom dwelling house including new access, off street parking, landscaping, boundaries & ancillary works", "development_address": "14 Herbert Park , Bray , Co. Wicklow", "application_status": "APPLICATION FINALISED" }, "geometry": { "type": "Point", "coordinates": [ -6.061720398, 52.96911258 ] } },
{ "type": "Feature", "properties": { "UID": 52, "development_description": "detached dwelling & ancillary site works, including connection to public sewer", "development_address": "Lower Windgates , Rathdown , Greystones", "application_status": "DECISION MADE" }, "geometry": { "type": "Point", "coordinates": [ -6.1800802, 52.81194812 ] } },
{ "type": "Feature", "properties": { "UID": 53, "development_description": "proposed single storey dwelling, garage, waste water treatment system to EPA 2009 standards & entrance", "development_address": "Ballinabarney North , Redcross , Co. Wicklow", "application_status": "APPLICATION FINALISED" }, "geometry": { "type": "Point", "coordinates": [ -6.429333273, 52.77902364 ] } },
{ "type": "Feature", "properties": { "UID": 54, "development_description": "dwelling, garage, well, effluent treatment system and associated works", "development_address": "Rathshanmore East , Knockananna , Co. Wicklow", "application_status": "APPLICATION FINALISED" }, "geometry": { "type": "Point", "coordinates": [ -6.064729276, 53.03788589 ] } },
{ "type": "Feature", "properties": { "UID": 55, "development_description": "demolition of existing shed, a new driveway entrance, a new 99 sqm 2 storey dwelling next to existing dwelling and ancillary site works", "development_address": "97 Killarney Heights , Bray , Co. Wicklow", "application_status": "APPLICATION FINALISED" }, "geometry": { "type": "Point", "coordinates": [ -6.061121935, 53.10123433 ] } },
{ "type": "Feature", "properties": { "UID": 56, "development_description": "bungalow, garage and puraflo treatment system", "development_address": "Butterhill , Blessington , Co. Wicklow", "application_status": "APPLICATION FINALISED" }, "geometry": { "type": "Point", "coordinates": [ -6.067443181, 53.13855708 ] } },
{ "type": "Feature", "properties": { "UID": 57, "development_description": "change of use of lands from agricultural to use for the keeping and exercising of dogs as part of a Dog Baording Kennel Business.  2. existing sheds and use of same as kennels and ancillary accommodation 3. existing advertising structure at roadside entrance together with permission sought for the decommissioning of existing septic tank system curring serving kennels and replacement with a new effluent holding tank and all associated site works", "development_address": "Winetavern , Stratford on Slaney , Co. Wicklow", "application_status": "APPLICATION FINALISED" }, "geometry": { "type": "Point", "coordinates": [ -6.058852795, 52.969785 ] } },
{ "type": "Feature", "properties": { "UID": 58, "development_description": "new dwelling, garage, well, installation of effluent disposal system & all ancillary site works", "development_address": "Ballinastoe , Roundwood , Co. Wicklow", "application_status": "APPLICATION FINALISED" }, "geometry": { "type": "Point", "coordinates": [ -6.083026873, 53.15841081 ] } },
{ "type": "Feature", "properties": { "UID": 59, "development_description": "change of use from residential religious convent to educational use", "development_address": "St. Brigid's National School , Trafalgar Road , Greystones", "application_status": "APPLICATION FINALISED" }, "geometry": { "type": "Point", "coordinates": [ -6.101064072, 53.0794928 ] } },
{ "type": "Feature", "properties": { "UID": 60, "development_description": "the provision of an additional pre-school Montessori session to be held between the hours of 1.00pm - 4.00pm, Monday - Friday", "development_address": "74 Fairy Hill , Bray , Co. Wicklow", "application_status": "APPLICATION FINALISED" }, "geometry": { "type": "Point", "coordinates": [ -6.160367952, 52.79718179 ] } },
{ "type": "Feature", "properties": { "UID": 61, "development_description": "construction of a single rural dormer dwelling & garage with wastewater treatment system, provision of shared entrance & all associated site works", "development_address": "Ballyknockan Beg , Ashford , Co. Wicklow", "application_status": "APPLICATION FINALISED" }, "geometry": { "type": "Point", "coordinates": [ -6.039405593, 52.98017308 ] } },
{ "type": "Feature", "properties": { "UID": 62, "development_description": "a new warehouse storage & distribution facility of 5,000sqm with loading bays, parking areas & associated landscaping & boundary treatment works. Existing exit to the public road west boundary to be upgraded to improve turning radius for vehicles & facilitate use of existing sight lines in the north & south directions of the public road", "development_address": "Unit 1A Lower Tinahisk , South Quay , Arklow", "application_status": "APPLICATION FINALISED" }, "geometry": { "type": "Point", "coordinates": [ -6.610890121, 53.01808149 ] } },
{ "type": "Feature", "properties": { "UID": 63, "development_description": "2 no. tables with seating", "development_address": "Public House , 78 Main Street , Bray", "application_status": "DECISION MADE" }, "geometry": { "type": "Point", "coordinates": [ -6.137376045, 53.16591722 ] } },
{ "type": "Feature", "properties": { "UID": 64, "development_description": "proposed residential development on lands at Carrigbrae House (Protected Structure), [former Marino Centre site], Church Road, Bray, Co. Wicklow. The proposed development will consist of the removal of existing temporary structures on site & the construction of 16 no. residential dwellings (6 no. semi detached 3 storey, 5 bed dwellings; 4 no. semi detached 3 storey, 4 dellings; & 6 no. terraced 3 storey, 4 bedroom dwellings) all with associated car parking; necessary refurbishment works to Carrigbrae House (RPS. No. 106) & its change of use from education/offices to a single residential dwelling; 1 no. esb substation; upgrade works to the existing entrance from church road; boundary treatments; landscaping; & all associated site & engineering works necessary to facilitate the development", "development_address": "lands at Carrigbrae House , (former Marino Centre site) , Church Road", "application_status": "APPLICATION FINALISED" }, "geometry": { "type": "Point", "coordinates": [ -6.106354859, 53.19311539 ] } },
{ "type": "Feature", "properties": { "UID": 65, "development_description": "to retain the modified as-built 2nd floor layout as approved & part constructed under reg. ref. 09/47 providing a reduced change of use area of 234sqm of Education/Training use rather then the 462sqm approved", "development_address": "Fernhill , Wexford Road , Arklow", "application_status": "APPLICATION FINALISED" }, "geometry": { "type": "Point", "coordinates": [ -6.728478518, 53.03963549 ] } },
{ "type": "Feature", "properties": { "UID": 66, "development_description": "proposed detached 2 storey dwelling & detached garage together with waste water treatment system to currenct EPA standards, on site bored well, new vehicular entrance onto public road and all ancillary site works", "development_address": "Ballygriffin , Arklow , Co. Wicklow", "application_status": "APPLICATION FINALISED" }, "geometry": { "type": "Point", "coordinates": [ -6.060817764, 53.13999145 ] } },
{ "type": "Feature", "properties": { "UID": 67, "development_description": "single storey dwelling with a wastewater treatment sytem, soil polishing filter and a single storey garage along with a new entrance and all associated site works", "development_address": "Mullinaveigue , Roundwood , Co. Wicklow", "application_status": "APPLICATION FINALISED" }, "geometry": { "type": "Point", "coordinates": [ -6.11151992, 53.20409093 ] } },
{ "type": "Feature", "properties": { "UID": 68, "development_description": "the demolition of existing 113.2 sqm agricultural sheds and construction of new 213sqm agricultural shed which is to contain cattle holding pens, underground slurry storage, slatted area and associated site works", "development_address": "Ballinatone , Greenane , Co. Wicklow", "application_status": "APPLICATION FINALISED" }, "geometry": { "type": "Point", "coordinates": [ -6.219444648, 53.06787346 ] } },
{ "type": "Feature", "properties": { "UID": 69, "development_description": "amendment to previously granted planning permission for a new farmhouse plan ref 15/242.  Work to involve alterations to previously granted proprietary treatment system to allow for the installation of a reed bed wastewater treatment system", "development_address": "Muckduff Lower , Kiltegan , Co. Wicklow", "application_status": "APPLICATION FINALISED" }, "geometry": { "type": "Point", "coordinates": [ -6.148537072, 52.79574389 ] } },
{ "type": "Feature", "properties": { "UID": 70, "development_description": "amended house design, incorporating a reduced floor area and ridge height in lieu of new house previously granted permission under planning reference 09/561", "development_address": "Drummin , Laragh , Co. Wicklow", "application_status": "APPLICATION FINALISED" }, "geometry": { "type": "Point", "coordinates": [ -6.078263692, 53.1489203 ] } },
{ "type": "Feature", "properties": { "UID": 71, "development_description": "demolition of existing two storey semi detached terraced building with permission for the construction of a semi detached terraced building consisting of 6 residential units as follows: 2 no one bedroom apartments (one at ground floor and one at first floor level), 3 no two bedroom terraced townhouses and 1 no one bedroom townhouse, connection to public foul sewer and water main and all associated site works", "development_address": "Market Square West , Main Street , Donard", "application_status": "APPLICATION FINALISED" }, "geometry": { "type": "Point", "coordinates": [ -6.102463235, 53.19442779 ] } },
{ "type": "Feature", "properties": { "UID": 72, "development_description": "garage and store together with associated site development works and services", "development_address": "Marlton Stud , Marlton Road , Wicklow Town", "application_status": "APPLICATION FINALISED" }, "geometry": { "type": "Point", "coordinates": [ -6.124193015, 53.1921953 ] } },
{ "type": "Feature", "properties": { "UID": 73, "development_description": "the construction of an eco style dwelling with shared vehicular access with the existing property, connecting to mains services & all ancillary site works", "development_address": "Lower Street , Rathdrum , Co. Wicklow", "application_status": "APPLICATION FINALISED" }, "geometry": { "type": "Point", "coordinates": [ -6.083098034, 52.99681266 ] } },
{ "type": "Feature", "properties": { "UID": 74, "development_description": "demolition of existing bungalow and outline planning permission for four no two storey dwellings on individual sites, new vehicular entrance on the R117 with new bridge, internal site roadway and all associated site development works including the closing off of the existing vehicular entrance", "development_address": "Dun Na Si , Bray Road , Enniskerry", "application_status": "APPLICATION FINALISED" }, "geometry": { "type": "Point", "coordinates": [ -6.099832364, 53.20451171 ] } },
{ "type": "Feature", "properties": { "UID": 75, "development_description": "full planning permission for a proposed new resource centre to the rear of the St. Vincent de Paul, Barton Street, Tinahely. The resource centre will have its main access off the fair green & connection to all services & will include for all associated site works at St. Vincent de PAul, Barton Street/Fair Green Tinahely.", "development_address": "Barton Street , Tinahely , Co. Wicklow", "application_status": "APPLICATION FINALISED" }, "geometry": { "type": "Point", "coordinates": [ -6.097311461, 53.14100671 ] } },
{ "type": "Feature", "properties": { "UID": 76, "development_description": "retention permission for dwelling as constructed on site, previously granted permission under file ref 07/237, & for full planning permission for the change of use (removal of condition no. 3 a section 38 agreement on the site of PRR 07/237 from the permitted restricted use as a dwelling, to use by all classes of persons & all associated site works", "development_address": "Shramore , Roundwood , Co. Wicklow", "application_status": "APPLICATION FINALISED" }, "geometry": { "type": "Point", "coordinates": [ -6.198978679, 52.87280945 ] } },
{ "type": "Feature", "properties": { "UID": 77, "development_description": "a solar panel array consisting of up to 3041sqm of solar panels on ground mounted steel frames, electricity control room, power inverter unit, underground cable ducts, solar powered CCTV cameras & lamps, security fence & all associated works", "development_address": "Kiltimon , Newtownmountkennedy , Co. Wicklow", "application_status": "APPLICATION FINALISED" }, "geometry": { "type": "Point", "coordinates": [ -6.099412889, 53.19717339 ] } },
{ "type": "Feature", "properties": { "UID": 78, "development_description": "a single storey dwelling house on the site to the rear of the existing dwelling house & all associated site works", "development_address": "St. Catherine's , Putland Road , Bray", "application_status": "DECISION MADE" }, "geometry": { "type": "Point", "coordinates": [ -6.071010454, 53.140557 ] } },
{ "type": "Feature", "properties": { "UID": 79, "development_description": "construction of a new gable for the conversion of the attic space for a new bedroom & toilet to include 2 roof windows to front, 2 roof windows to the rear, a new window to the side elevation all at second floor level, internal alterations & all associated site works", "development_address": "274 Charlesland Park , Greystones , Co. Wicklow", "application_status": "APPLICATION FINALISED" }, "geometry": { "type": "Point", "coordinates": [ -6.463758884, 52.79926636 ] } },
{ "type": "Feature", "properties": { "UID": 80, "development_description": "demolition of existing 227sqm sheds & construction of a new 223sqm sheep shed to include stock storage, lambing cubicles, new concrete yards & all associated ancillary", "development_address": "Rathdangan , Co. Wicklow ", "application_status": "APPLICATION FINALISED" }, "geometry": { "type": "Point", "coordinates": [ -6.058628853, 52.96889261 ] } },
{ "type": "Feature", "properties": { "UID": 81, "development_description": "change of use of house type as granted under PRR: 15/629 including all ancillary", "development_address": "Kilmacanogue South , Kilmacanogue , Co. Wicklow", "application_status": "APPLICATION FINALISED" }, "geometry": { "type": "Point", "coordinates": [ -6.063742225, 53.10710676 ] } },
{ "type": "Feature", "properties": { "UID": 82, "development_description": "retention of domestic garage, & retention of velux roof windows over attic storage area of bungalow. Permission is sought for change use (removal of condition 2 of planning reference number 02/6140) from restricted use as a dwelling to use as a dwelling to be used by all classes of persons", "development_address": "Ballymanus , Tinahely , Co. Wicklow", "application_status": "APPLICATION FINALISED" }, "geometry": { "type": "Point", "coordinates": [ -6.204128323, 52.87828074 ] } },
{ "type": "Feature", "properties": { "UID": 83, "development_description": "1. Permission for the conversion of existing attic & the installation of 2 no. shed dormers & velux roof lights, 2. Retention of existing porch to side & 2 no. bay windows to front & retention of existing velux rooflights & all ancillary site works", "development_address": "'Eversden' , Glencuilleann , Kilquade", "application_status": "APPLICATION FINALISED" }, "geometry": { "type": "Point", "coordinates": [ -6.058628853, 52.96889261 ] } },
{ "type": "Feature", "properties": { "UID": 84, "development_description": "a dormer bungalow with driveway, drainage, boundary treatment, joint entrance & ancillary works", "development_address": "Kiladreenan , Newtownmountkennedy , Co. Wicklow", "application_status": "APPLICATION FINALISED" }, "geometry": { "type": "Point", "coordinates": [ -6.217790423, 52.81387921 ] } },
{ "type": "Feature", "properties": { "UID": 85, "development_description": "change of use of existing two-storey building to (1) language school at ground floor & part of first floor level & (2) to a two bedroom apartment on first floor & associated works", "development_address": "Marlton Road , Wicklow Town , Co. Wicklow", "application_status": "APPLICATION FINALISED" }, "geometry": { "type": "Point", "coordinates": [ -6.060225061, 53.11075906 ] } },
{ "type": "Feature", "properties": { "UID": 86, "development_description": "(1) the conversion of the existing studio granny flat, (2) the raising & re-roofing of the existing studio roof to include a dormer window to the front, (3) internal alterations & (4) associated site works", "development_address": "The Sexton's House , Nuns Cross , Ashford", "application_status": "APPLICATION FINALISED" }, "geometry": { "type": "Point", "coordinates": [ -6.164005706, 53.1649024 ] } },
{ "type": "Feature", "properties": { "UID": 87, "development_description": "proposed new replacement raised roof to existing dwelling to accommodate habitable space with velux windows to front, & proposed new waste water treatment system to EPA 2009 standards", "development_address": "Bahana (Whaley) , Ballinaclash , Co. Wicklow", "application_status": "APPLICATION FINALISED" }, "geometry": { "type": "Point", "coordinates": [ -6.298622714, 53.00731881 ] } },
{ "type": "Feature", "properties": { "UID": 88, "development_description": "proposed change of use from industrial use to plastics recycling facility unit", "development_address": "Avoca River Park , Arklow , Co. Wicklow", "application_status": "APPLICATION FINALISED" }, "geometry": { "type": "Point", "coordinates": [ -6.233875183, 53.05997167 ] } },
{ "type": "Feature", "properties": { "UID": 89, "development_description": "change of use, the removal of condition 2(A) of PRR 06/5749, from the permitted restricted use as a dwelling, to use by all classes of persons", "development_address": "Kilmacoo , Redcross , Avoca", "application_status": "APPLICATION FINALISED" }, "geometry": { "type": "Point", "coordinates": [ -6.22817833, 53.06423878 ] } },
{ "type": "Feature", "properties": { "UID": 90, "development_description": "revised house type on previously granted site (ref. no. 15/235) ", "development_address": "Ballymanus , Glenealy , Co. Wicklow", "application_status": "APPLICATION FINALISED" }, "geometry": { "type": "Point", "coordinates": [ -6.140176947, 52.8127009 ] } },
{ "type": "Feature", "properties": { "UID": 91, "development_description": "removal of existing septic tank, installation of new wasterwater treatment unit & soil polishing and associate works", "development_address": "Mandurch , Ballinastoe , Roundwood", "application_status": "APPLICATION FINALISED" }, "geometry": { "type": "Point", "coordinates": [ -6.149925042, 52.79577991 ] } },
{ "type": "Feature", "properties": { "UID": 92, "development_description": "milking parlour with slatted tank, a new collecting yard.  Permission for a new overground circular slurry storage, a new meal bin, a new water storage tank and to open new field entrance with new roadway and associated works", "development_address": "Rosnastraw , Tinahely , Co. Wicklow", "application_status": "APPLICATION FINALISED" }, "geometry": { "type": "Point", "coordinates": [ -6.177121779, 53.21039035 ] } },
{ "type": "Feature", "properties": { "UID": 93, "development_description": "(a) construction of a livestock shed with underground slatted tank (b) construction of silage slab (c) construction of roof over existing slatted tanks and all associated site works", "development_address": "Castlegrange , Newcastle , Co. Wicklow", "application_status": "APPLICATION FINALISED" }, "geometry": { "type": "Point", "coordinates": [ -6.069795092, 52.98729221 ] } },
{ "type": "Feature", "properties": { "UID": 94, "development_description": "10/109 - demolition of existing light industrial/warehousing building (existing floor area c.1096m sq & height c.6.85m) and replacement of same with a new light industrial warehousing building (proposed floor area c.1473m sq. (1042m.sq. at ground floor & 431m.sq at first floor/mezzanine level) & height c.9m) all on site of circa. 1258.sq/0.31Ac.", "development_address": "8 & 9 Harbour Industrial Estate , Bray Harbour , Bray", "application_status": "APPLICATION FINALISED" }, "geometry": { "type": "Point", "coordinates": [ -6.116118054, 53.19724903 ] } },
{ "type": "Feature", "properties": { "UID": 95, "development_description": "water treatment plant including a water treatment building (gross area of approx 4670 sqm) a low lift pumping station, sludge treatment facilities including a sludge dewatering building, sludge balancing tank, thickening tanks, sludge holding tank and sludge storage tank and sludge storage facility, washwater recovery and settlement tanks and an electrical distribution building to replace the existing water treatment scheme, alteration to the existing reservoir offtake tower, addition and alteration to pipework and structures within the existing reservoir dam, construction of a piped siphon over the existing reservoir dam, demolition of a disused public toilet, regrading of the existing overflow spillway and associated landscaping and site development works", "development_address": "Vartry Water Treatment Site , Vartry , Roundwood", "application_status": "APPLICATION FINALISED" }, "geometry": { "type": "Point", "coordinates": [ -6.126691, 53.19133759 ] } },
{ "type": "Feature", "properties": { "UID": 96, "development_description": "new 'portakabin' structure (25 sqm) to rear of existing creche building for the purposes of providing session montessori care.  2. Connection to all public services 3. All necessary ancillary works to facilitate the development", "development_address": "Little Poppets , 99 Woodstock , Kilcoole", "application_status": "APPLICATION FINALISED" }, "geometry": { "type": "Point", "coordinates": [ -6.340940371, 52.81556372 ] } },
{ "type": "Feature", "properties": { "UID": 97, "development_description": "the replacement of the existing single storey exterior canopy (8.4sqm) with new single storey exterior canopy (8.9sqm) to front (east) elevation. This will extend 0.9m forward from the entrance door to the left south corner of the house. It will have a pitched roof with roof tiles to match existing & supporting posts to the front. Run off water will be channelled off to a soak pit. The canopy will not be enclosed or form part of the interior of the house.", "development_address": "'Pine Hill' , Quarry Road , Greystones", "application_status": "APPLICATION FINALISED" }, "geometry": { "type": "Point", "coordinates": [ -6.122016565, 53.2030558 ] } },
{ "type": "Feature", "properties": { "UID": 98, "development_description": "retention of the existing 24m high, free standing monopole type communications structure, carrying antennae & communications dishes, within a 2.4m high palisade compound, previously granted temporary permission under Wicklow Co. Co. ref 11/4002", "development_address": "Kilcoole 38UV Substation , Renmore Business Park , Coolross Upper", "application_status": "APPLICATION FINALISED" }, "geometry": { "type": "Point", "coordinates": [ -6.122016565, 53.2030558 ] } },
{ "type": "Feature", "properties": { "UID": 99, "development_description": "external slatted tank, concrete aprons and associated site works", "development_address": "Ballinvally Upper (ED Arklow Rural) , Arklow , Co. Wicklow", "application_status": "APPLICATION FINALISED" }, "geometry": { "type": "Point", "coordinates": [ -6.130436546, 53.03933055 ] } },
{ "type": "Feature", "properties": { "UID": 100, "development_description": "to construct a cr√®che & childcare facility with associated car parking, connection to public services & ancillary works", "development_address": "Ballynerrin (E.D. Wicklow Rural) , Ballynerrin Lower , Co. Wicklow", "application_status": "APPLICATION FINALISED" }, "geometry": { "type": "Point", "coordinates": [ -6.141356274, 52.80557718 ] } },
{ "type": "Feature", "properties": { "UID": 101, "development_description": "2 storey dormer dwelling (202,84sqm), revisions to existing site entrance & associated site works", "development_address": "Fairview , Windgates , Greystones", "application_status": "APPLICATION FINALISED" }, "geometry": { "type": "Point", "coordinates": [ -6.062758776, 52.99266317 ] } },
{ "type": "Feature", "properties": { "UID": 102, "development_description": "for approval for house design consequent on the grant of outline permission ref no. 15/600 for our clients Salome & Niall Murphy for a dormer bungalow with driveway, drainage, boundary treatment, duel access & ancillary works", "development_address": "34 Killadreenan , Newtownmountkennedy , Co. Wicklow", "application_status": "APPLICATION FINALISED" }, "geometry": { "type": "Point", "coordinates": [ -6.057507895, 53.13706814 ] } },
{ "type": "Feature", "properties": { "UID": 103, "development_description": "Scaffolding", "development_address": "9 Upper Main street , Arklow , Co. Wicklow", "application_status": "DECISION MADE" }, "geometry": { "type": "Point", "coordinates": [ -6.548299065, 53.12439199 ] } },
{ "type": "Feature", "properties": { "UID": 104, "development_description": "working scaffold", "development_address": "The Mall , Wicklow Town , Co. Wicklow", "application_status": "DECISION MADE" }, "geometry": { "type": "Point", "coordinates": [ -6.182882453, 52.93561954 ] } },
{ "type": "Feature", "properties": { "UID": 105, "development_description": "two hardstanding areas as open hardcored areas for parking & storage of tractors, trailers, agricultural machinery, timber, vehicles & horse boxes ancillary to farm use", "development_address": "Belmont Demense , E.D. Delgany , Rathdown", "application_status": "APPLICATION FINALISED" }, "geometry": { "type": "Point", "coordinates": [ -6.216649225, 52.86145253 ] } },
{ "type": "Feature", "properties": { "UID": 106, "development_description": "dormer type dwelling, garage, foul sewer connection, entrance & associated works on my site at Donard Lower, Donard, which currently benefits similar planning permission granted under PP Reg. Ref. 08/834 and extended by PP Reg. Ref. 14/1796", "development_address": "Donard Lower , Donard , Co. Wicklow", "application_status": "APPLICATION FINALISED" }, "geometry": { "type": "Point", "coordinates": [ -6.656803304, 52.91855592 ] } },
{ "type": "Feature", "properties": { "UID": 107, "development_description": "dwelling, waste water treatment system to EPA 2009 standards, garage and new entrance", "development_address": "Ballykeppoge , Wicklow ", "application_status": "APPLICATION FINALISED" }, "geometry": { "type": "Point", "coordinates": [ -6.157939575, 52.79258864 ] } },
{ "type": "Feature", "properties": { "UID": 108, "development_description": "relocate detached dormer dwelling with new entrance together with all ancillary site works including connection to all public services granted permission ref no 15/411 to finished floor level as that granted permission ref number 14/2072 on adjoining site to north west", "development_address": "Kilmacanogue South , Kilmacanogue , Co. Wicklow", "application_status": "APPLICATION FINALISED" }, "geometry": { "type": "Point", "coordinates": [ -6.105247932, 52.93166937 ] } },
{ "type": "Feature", "properties": { "UID": 109, "development_description": "vehicular access with timber faced sliding gate to the southeast boundary wall, proposed parking area to the rear garden and all associated works", "development_address": "Hillcrest , Vevay Road , Bray", "application_status": "APPLICATION FINALISED" }, "geometry": { "type": "Point", "coordinates": [ -6.102308737, 53.198889 ] } },
{ "type": "Feature", "properties": { "UID": 110, "development_description": "new domestic garage", "development_address": "Knocknagull , Dunlavin , Co. Wicklow", "application_status": "APPLICATION FINALISED" }, "geometry": { "type": "Point", "coordinates": [ -6.065130206, 52.99068279 ] } },
{ "type": "Feature", "properties": { "UID": 111, "development_description": "separate vehicular entrances to two no. houses currently in process of completing construction - under previously approved permission, PRR 09/932 & for the erection of a 1.8m high timber boundary fence to subdivide the front gardens", "development_address": "6 South Place , Greystones , Co. Wicklow", "application_status": "APPLICATION FINALISED" }, "geometry": { "type": "Point", "coordinates": [ -6.45153851, 52.84123054 ] } },
{ "type": "Feature", "properties": { "UID": 112, "development_description": "subdivision of 655sqm site with alteration to existing boundaries & driveway, construction of 166sqm, 2 storey, 4 bedroom dwelling to side garden/north of existing dwelling, alterations to existing palisade fencing position to accommodate vehicular & pedestrian to new dwelling", "development_address": "'Rivendale' , Herbert Road , Bray", "application_status": "APPLICATION FINALISED" }, "geometry": { "type": "Point", "coordinates": [ -6.062319596, 52.984108 ] } },
{ "type": "Feature", "properties": { "UID": 113, "development_description": "change of use from commercial garage to residential unit, renovation, widening of existing entrance & ancillary site works", "development_address": "Togher Beg , Roundwood , Co. Wicklow", "application_status": "APPLICATION FINALISED" }, "geometry": { "type": "Point", "coordinates": [ -6.711134079, 52.98518394 ] } },
{ "type": "Feature", "properties": { "UID": 114, "development_description": "demolition of existing disused industrial buildings of total floor area of 24,500 sqm ", "development_address": "Tinahask Lower , South Quay , Arklow", "application_status": "APPLICATION FINALISED" }, "geometry": { "type": "Point", "coordinates": [ -6.192810036, 53.19646758 ] } },
{ "type": "Feature", "properties": { "UID": 115, "development_description": "1.8m high V Mesh fencing and entrance gates to existing Soccer Club grounds", "development_address": "Station Road , Wicklow ", "application_status": "APPLICATION FINALISED" }, "geometry": { "type": "Point", "coordinates": [ -6.137376045, 53.16591722 ] } },
{ "type": "Feature", "properties": { "UID": 116, "development_description": "proposed change of use of existing tourist hostel to bed & breakfast accommodation & associated works", "development_address": "'The Leitrim Lodge' , Bachelors Walk , Wicklow Town", "application_status": "APPLICATION FINALISED" }, "geometry": { "type": "Point", "coordinates": [ -6.068841707, 53.1323997 ] } },
{ "type": "Feature", "properties": { "UID": 117, "development_description": "proposed minor revisions to roof over bay windows on elevations of approved house types E1, E2, E3, & E4 on site nos. 2 to 12 incl. 15, 16, 17, 18, 21 & 22 (Road no. 3) & 9 & 12 to 17 incl. (Road no 4) in approved housing development (Ref. 14/1031) currently under construction at Seagreen", "development_address": "Seagreen , Chapel Road , Blacklion", "application_status": "APPLICATION FINALISED" }, "geometry": { "type": "Point", "coordinates": [ -6.558234876, 53.10647943 ] } },
{ "type": "Feature", "properties": { "UID": 118, "development_description": "new flat roof glazed porch of 3sqm, to the front of no.6 Rathdown Court, Greystones, Co. Wicklow", "development_address": "6 Rathdown Court , Blacklion , Greystones", "application_status": "APPLICATION FINALISED" }, "geometry": { "type": "Point", "coordinates": [ -6.130782709, 53.19774349 ] } },
{ "type": "Feature", "properties": { "UID": 119, "development_description": "the erection of one building consisting of two single storey temporary classrooms with associated site works to the rear of the existing school", "development_address": "St. Anthony's Building , Kilcoole National School , Kilcoole", "application_status": "APPLICATION FINALISED" }, "geometry": { "type": "Point", "coordinates": [ -6.660436573, 52.80281158 ] } },
{ "type": "Feature", "properties": { "UID": 120, "development_description": "proposed new dwelling, new well, a proposed new secondary treatment system to current EPA guidelines and new percolation area, and all associated site works (planning for a dwelling exists on this site file ref 14/2175)", "development_address": "Sraghmore , Roundwood , Co. Wicklow", "application_status": "APPLICATION FINALISED" }, "geometry": { "type": "Point", "coordinates": [ -6.029657923, 52.96037415 ] } },
{ "type": "Feature", "properties": { "UID": 121, "development_description": "the demolition of a single story shed & the construction of a two storey detached family dwelling, set in a landscaped garden, with two single storey domestic stores, new boundary fence, with entrance access directly off Church Hill", "development_address": "rear of Woodside , Church Hill , Wicklow Town", "application_status": "APPLICATION FINALISED" }, "geometry": { "type": "Point", "coordinates": [ -6.526569935, 53.14132622 ] } },
{ "type": "Feature", "properties": { "UID": 122, "development_description": "the demolition of a single story shed & the construction of a two storey detached family dwelling, set in a landscaped garden, with two single storey domestic stores, new boundary fence, with entrance access directly off Church Hill", "development_address": "rear of Woodside , Church Hill , Wicklow Town", "application_status": "APPLICATION FINALISED" }, "geometry": { "type": "Point", "coordinates": [ -6.123219098, 53.08685438 ] } },
{ "type": "Feature", "properties": { "UID": 123, "development_description": "construction of a new 137.6sqm, 2 bedroom, single storey, split level house with mezzanine on backland site to rear of 'St. Gerard's' on Putland Road, Bray, Co. Wicklow. It is to be externally finished in cement & brickwork with timber casement windows & doors & a pitched metal roof covering with one rooflight. Works will include two sheds demolition (total 30.9sqm) widening entrance gates to Putland Road with parking to front of existing dwelling along with all required ancillary site & landscaping works", "development_address": "St. Gerard's , Putland Road , Bray", "application_status": "APPLICATION FINALISED" }, "geometry": { "type": "Point", "coordinates": [ -6.19899292, 52.91094987 ] } },
{ "type": "Feature", "properties": { "UID": 124, "development_description": "retention for a) Fernhouse Restaurant built 86sqm bigger the permitted under plan ref 06/5635 & b) flower kiosk 19sqm opposite the main Avoca retail building", "development_address": "Avoca Handweavers Limited , Glencormac South , Kilmacanogue", "application_status": "APPLICATION FINALISED" }, "geometry": { "type": "Point", "coordinates": [ -6.330375221, 52.8785856 ] } },
{ "type": "Feature", "properties": { "UID": 125, "development_description": "the construction of a two storey dwelling house with two no. rear car parking spaces & ancillary works with access via the Heatherton Development, Killarney Road", "development_address": "rear of 'Cherrylawn' , Killarney Road , Bray", "application_status": "APPLICATION FINALISED" }, "geometry": { "type": "Point", "coordinates": [ -6.066129232, 53.15140769 ] } },
{ "type": "Feature", "properties": { "UID": 126, "development_description": "a single storey dwelling wastewater treatment & all ancillary works", "development_address": "Newrath , Rathnew , Co. Wicklow", "application_status": "APPLICATION FINALISED" }, "geometry": { "type": "Point", "coordinates": [ -6.711114402, 53.03502098 ] } },
{ "type": "Feature", "properties": { "UID": 127, "development_description": "2 no. roof windows to front (eastern) side of the existing roof", "development_address": "6 Marine Terrace , Strand Road , Bray", "application_status": "APPLICATION FINALISED" }, "geometry": { "type": "Point", "coordinates": [ -6.526554429, 53.12953612 ] } },
{ "type": "Feature", "properties": { "UID": 128, "development_description": "to construct 45 housing units consisting of; 10 one bedroom apartments, 8 two bedroom houses, 24 three bedroom houses, 2 four bedroom houses, 1 four bedroom bungalow for people with disabilities. The development will be accessed from Hazelbrook, with connections to existing public services, water supply, foul & surface water disposal systems, diverted stream, culvert, landscaping, bin stores & all associated site works", "development_address": "Ballybeg & Merrymeeting , Rathnew , Co. Wicklow", "application_status": "APPLICATION FINALISED" }, "geometry": { "type": "Point", "coordinates": [ -6.486221898, 53.14024333 ] } },
{ "type": "Feature", "properties": { "UID": 129, "development_description": "replace existing 11m high and cabin and to erect a new mast 20m high, to house up to 17 dishes 0.3 m or 0.6m in size and a new equipment cabin so as to supply a Broadband and Phone Service from the existing compound shared with other operatores", "development_address": "Kindlestown Wood , Delgany , Co. Wicklow", "application_status": "APPLICATION FINALISED" }, "geometry": { "type": "Point", "coordinates": [ -6.079329137, 52.99228951 ] } },
{ "type": "Feature", "properties": { "UID": 130, "development_description": "a new 144.38sqm car storage shed, & any ancillary works, to the rear (south-east) of an existing dwelling & retention permission for an existing workshop-shed to the north-eastern side of the existing dwelling & a boiler-house-cum-storage shed to the rear of the existing garage (south east)", "development_address": "Knockanree Upper , Avoca , Co. Wicklow", "application_status": "APPLICATION FINALISED" }, "geometry": { "type": "Point", "coordinates": [ -6.20840327, 52.85211127 ] } },
{ "type": "Feature", "properties": { "UID": 131, "development_description": "the removal of a window at side (south) elevation & construction of a single storey bay window in its place. The new window frame & glazing to match existing. The new render finish, gutter & roof tiles to match existing at a detached single storey house", "development_address": "'Las Dunas' , 42 Sidmonton Road , Bray", "application_status": "APPLICATION FINALISED" }, "geometry": { "type": "Point", "coordinates": [ -6.067438897, 53.14159483 ] } },
{ "type": "Feature", "properties": { "UID": 132, "development_description": "removal of the existing outbuilding, dwelling & septic tank etc. & the construction of new detached dwelling, with waste water treatment system to EPA 2009 standards new vehicular entrance to replace existing & all ancillary works", "development_address": "'Tinnebeg' , Cookstown Road , Enniskerry", "application_status": "APPLICATION FINALISED" }, "geometry": { "type": "Point", "coordinates": [ -6.227535363, 53.06419508 ] } },
{ "type": "Feature", "properties": { "UID": 133, "development_description": "retention of existing foundations/substructures & completion of houses on sites 1,2,3 together with connections to existing estate road & services", "development_address": "Sites 1-3 Marlton Hall , Ballynerrin , Wicklow Town", "application_status": "APPLICATION FINALISED" }, "geometry": { "type": "Point", "coordinates": [ -6.01258509, 52.95700846 ] } },
{ "type": "Feature", "properties": { "UID": 134, "development_description": "the demolition of 2 no. existing masonry piers adjoined to a vehicular entrance at Junction of Whitshed Road & Portland Road North & the subsequent construction of two masonry gate piers to match existing in style or height, new piers to be set back within the existing policy fence with new hedge planting to Portland Road North boundary & new gates to existing gate piers at South East corner of site on Portland Road North", "development_address": "Lisela , Whitshed Road , Greystones", "application_status": "APPLICATION FINALISED" }, "geometry": { "type": "Point", "coordinates": [ -6.250187069, 52.93168853 ] } },
{ "type": "Feature", "properties": { "UID": 135, "development_description": "changes to previously approved house design to include two rear facing dormer style windows on the first floor & double doors to replace original windows on the ground floor, on previously approved sites 2 & 3 (previous planning reg.ref. no. 15/90)", "development_address": "'Hazelwood' , Johnstown , Kilpedder", "application_status": "APPLICATION FINALISED" }, "geometry": { "type": "Point", "coordinates": [ -6.701460499, 53.01252417 ] } },
{ "type": "Feature", "properties": { "UID": 136, "development_description": "change of use of a ground floor apartment (flat no. 1) to a dispensary, storage, canteen & toilet facility to the rear, & serving an existing pharmacy unit. retention permission is also sought for alterations to the shop front", "development_address": "Tinahely Pharmacy , Dwyer Square , Tinahely", "application_status": "APPLICATION FINALISED" }, "geometry": { "type": "Point", "coordinates": [ -6.231445707, 52.93122812 ] } },
{ "type": "Feature", "properties": { "UID": 137, "development_description": "proposed new waste water treatment system to EPA 2009 standards in lieu of existing septic tank & soakpit", "development_address": "Gorse Hill , Ballynerrin Upper , Wicklow", "application_status": "APPLICATION FINALISED" }, "geometry": { "type": "Point", "coordinates": [ -6.061803802, 53.14400686 ] } },
{ "type": "Feature", "properties": { "UID": 138, "development_description": "to demolish existing house & to erect 4 no. two story terraced townhouses, & ancillary site work & to connect into existing mains services", "development_address": "Lott Lane , Kilcoole , Co. Wicklow", "application_status": "APPLICATION FINALISED" }, "geometry": { "type": "Point", "coordinates": [ -6.092595375, 53.03415367 ] } },
{ "type": "Feature", "properties": { "UID": 139, "development_description": "change of house type to that approved under Reg Ref 04/2098 & 15/797 a domestic garage & effluent disposal system to current EPA standards & all associated site works", "development_address": "Tigroney East , Avoca , Co. Wicklow", "application_status": "APPLICATION FINALISED" }, "geometry": { "type": "Point", "coordinates": [ -6.102643766, 53.19231151 ] } },
{ "type": "Feature", "properties": { "UID": 140, "development_description": "proposed dwelling waste water treatment system to epa 2009 standards, garage, & new entrance", "development_address": "Gorse Hill , Ballynerrin Upper , Wicklow", "application_status": "APPLICATION FINALISED" }, "geometry": { "type": "Point", "coordinates": [ -6.224670717, 53.0630463 ] } },
{ "type": "Feature", "properties": { "UID": 141, "development_description": "panning permission consequent to outline planning permission under ref. no. 15/439 for a single storey dwelling, waste water treatment system to EPA 2009 standards, garage & all ancillary works", "development_address": "Kilcarra East , Arklow , Co. Wicklow", "application_status": "APPLICATION FINALISED" }, "geometry": { "type": "Point", "coordinates": [ -6.081118524, 52.92227082 ] } },
{ "type": "Feature", "properties": { "UID": 142, "development_description": "to construct a playground", "development_address": "Lott Lane , Kilcoole , Co. Wicklow", "application_status": "APPLICATION FINALISED" }, "geometry": { "type": "Point", "coordinates": [ -6.427647969, 52.7788128 ] } },
{ "type": "Feature", "properties": { "UID": 143, "development_description": "modifications to the existing vehicular entrance onto the R755, where the driveway will be realigned and enlarged to improve access servicing the existing dwellings, along with all associated and ancillary site development works", "development_address": "Larkspur , Killough , Kilmacanogue", "application_status": "APPLICATION FINALISED" }, "geometry": { "type": "Point", "coordinates": [ -6.25745276, 52.90701671 ] } },
{ "type": "Feature", "properties": { "UID": 144, "development_description": "garage as constructed and all ancillary works", "development_address": "2 Beechwood  , Laragh , Co. Wicklow", "application_status": "APPLICATION FINALISED" }, "geometry": { "type": "Point", "coordinates": [ -6.328056391, 52.85565304 ] } },
{ "type": "Feature", "properties": { "UID": 145, "development_description": "all weather athletic facility incorporating a new clubhouse circa 1350 sqft approx with covered areas adjacent, new sprint, perimeter running track and vaulting areas including long jump areas training areas, floodlighting, new perimeter fencing and boundaries, new vehicular entrance and parking, connection to services and all other associated site works required for such a facility.  The application also includes provision for a new playground which will form part of works to be carried out later by Wicklow County Council separate to this application", "development_address": "Togher More , Roundwood , Co. Wicklow", "application_status": "APPLICATION FINALISED" }, "geometry": { "type": "Point", "coordinates": [ -6.534163219, 53.16997098 ] } },
{ "type": "Feature", "properties": { "UID": 146, "development_description": "recreational garden to the rear of existing premises for the use of nursing home residents comprising of the lowering of ground level of part of the existing yard by circa 1.6 metres (to coincide with first floor level of existing building), including retaining structures, hard and soft landscaping, planting, steps and ancillary site development works", "development_address": "Shannagh Bay Nursing Home , 2-3 Fitzwilliam Terrace , Strand Road", "application_status": "APPLICATION FINALISED" }, "geometry": { "type": "Point", "coordinates": [ -6.077802751, 52.93134687 ] } },
{ "type": "Feature", "properties": { "UID": 147, "development_description": "34 no dwellings of a design and stylisation similiar to that as granted under 06/5648 and extended under 12/6575 including garages to house numbers 1-4 on an estate layout similar to that as currently granted planning permission under plan register reference 06/5648 and extended under 12/6575.  The main difference is the previously granted link road is now omitted in lieu of a single site entrance point to the eastern boundary all together with associated site works", "development_address": "Ballynerrin Upper , Wicklow ", "application_status": "APPLICATION FINALISED" }, "geometry": { "type": "Point", "coordinates": [ -6.080526645, 53.1503614 ] } },
{ "type": "Feature", "properties": { "UID": 148, "development_description": "conversion of penthouse (second floor) commercial area to provide change of use to 3 no. live/work residential units, this will include addition of loft style bedroom to each unit, & all associated works", "development_address": "The Studios , Theatre Lane , off Hillside Road", "application_status": "APPLICATION FINALISED" }, "geometry": { "type": "Point", "coordinates": [ -6.114480136, 53.03740451 ] } },
{ "type": "Feature", "properties": { "UID": 149, "development_description": "to erect 60 solar panels on the roof of a grain store", "development_address": "Killiniskyduff , Arklow , Co. Wicklow", "application_status": "APPLICATION FINALISED" }, "geometry": { "type": "Point", "coordinates": [ -6.109706943, 53.20092792 ] } },
{ "type": "Feature", "properties": { "UID": 150, "development_description": "bay window and porch to the front elevation of house", "development_address": "29 South Green , Arklow , Co. Wicklow", "application_status": "APPLICATION FINALISED" }, "geometry": { "type": "Point", "coordinates": [ -6.067370745, 53.10008122 ] } },
{ "type": "Feature", "properties": { "UID": 151, "development_description": "bungalow and associated site works", "development_address": "Rear 17 Centre Road , Ballygannon , Rathdrum", "application_status": "APPLICATION FINALISED" }, "geometry": { "type": "Point", "coordinates": [ -6.169753175, 52.78942622 ] } },
{ "type": "Feature", "properties": { "UID": 152, "development_description": "effluent disposal system to current EPA standards to serve existing dwelling together with all associated site works", "development_address": "Killegar , Enniskerry , Co. Wicklow", "application_status": "APPLICATION FINALISED" }, "geometry": { "type": "Point", "coordinates": [ -6.713167956, 52.93680619 ] } },
{ "type": "Feature", "properties": { "UID": 153, "development_description": "two storey detached dwelling, domestic garage, connection to proposed services and all ancillary works", "development_address": "Burkeen , Friars Hill , Wicklow", "application_status": "APPLICATION FINALISED" }, "geometry": { "type": "Point", "coordinates": [ -6.119333513, 53.04230854 ] } },
{ "type": "Feature", "properties": { "UID": 154, "development_description": "commercial development.  The development will consist of the erection of palisade fencing including vehicular access gates located between existing warehouse buildings 1 and 2, external open fenced storage bays and for a new external pedestrian access door in the north western facade of warehouse building 2 all on an application site area of 0.12 ha", "development_address": "Killarney Road , Bray , Co. Wicklow", "application_status": "APPLICATION FINALISED" }, "geometry": { "type": "Point", "coordinates": [ -6.495686994, 52.81596567 ] } },
{ "type": "Feature", "properties": { "UID": 155, "development_description": "dwelling, garage, well, effluent treatment system and access to road by right of way on private lane", "development_address": "Downshill , Bray , Co. Wicklow", "application_status": "APPLICATION FINALISED" }, "geometry": { "type": "Point", "coordinates": [ -6.638084549, 52.81411497 ] } },
{ "type": "Feature", "properties": { "UID": 156, "development_description": "two storey house & also roof light to stairwell of existing vehicular access to front to provide separate vehicular access to existing & proposed & connection to all services & with associated site works", "development_address": "27 Herbert Park , Bray , Co. Wicklow", "application_status": "APPLICATION FINALISED" }, "geometry": { "type": "Point", "coordinates": [ -6.700836605, 53.05735955 ] } },
{ "type": "Feature", "properties": { "UID": 157, "development_description": "agricultural shed for storage of straw and dung along with all associated site works", "development_address": "Kilcandra , Glenealy , Co. Wicklow", "application_status": "APPLICATION FINALISED" }, "geometry": { "type": "Point", "coordinates": [ -6.079903601, 52.99018941 ] } },
{ "type": "Feature", "properties": { "UID": 158, "development_description": "retention of the internal subdivision of the units & change of use of part of the units from retail use to a health & fitness use & part of the unit from retial to medical/health use", "development_address": "Units 1 & 2 (Ground Floor) , Blacklion Retail Centre , Blacklion Road", "application_status": "APPLICATION FINALISED" }, "geometry": { "type": "Point", "coordinates": [ -6.322365986, 52.82461983 ] } },
{ "type": "Feature", "properties": { "UID": 159, "development_description": "proposed dwelling, waste water treatment system to EPA 2009 standards, garage, new entrance & site ancillary works", "development_address": "Coolbawn , Aughrim , Co. Wicklow", "application_status": "APPLICATION FINALISED" }, "geometry": { "type": "Point", "coordinates": [ -6.571143868, 52.78565885 ] } },
{ "type": "Feature", "properties": { "UID": 160, "development_description": "retention of living unit in former public bar & for change of use from licensed public lounge to living unit in portion of ground floor lounge bar with alterations to elevation to Upper Dargle Road", "development_address": "The Dargle Tavern , Lower Dargle Road , Bray", "application_status": "APPLICATION FINALISED" }, "geometry": { "type": "Point", "coordinates": [ -6.067464115, 52.98720395 ] } },
{ "type": "Feature", "properties": { "UID": 161, "development_description": "change of use from licensed public lounge to living unit in portion of ground lounge bar with alterations to elevations to Upper Dargle Road", "development_address": "The Dargle Tavern , Lower Dargle Road , Bray", "application_status": "APPLICATION FINALISED" }, "geometry": { "type": "Point", "coordinates": [ -6.129342566, 53.1885502 ] } },
{ "type": "Feature", "properties": { "UID": 162, "development_description": "demolition of the existing two storey detached dwelling and construction of a new two storey detached replacement dwelling with wastewater treatment system and polishing filter along with associated site and drainage works", "development_address": "Lagoreen House , Tomcoyle Lower , Ashford", "application_status": "APPLICATION FINALISED" }, "geometry": { "type": "Point", "coordinates": [ -6.114327498, 53.11687572 ] } },
{ "type": "Feature", "properties": { "UID": 163, "development_description": "two storey split level detached dwelling, new vehicular entrance from public road, new connection to existing public services, together with new boundary wall treatment and ancillary site works", "development_address": "Sea Road , Arklow , Co. Wicklow", "application_status": "APPLICATION FINALISED" }, "geometry": { "type": "Point", "coordinates": [ -6.125117138, 53.01739116 ] } },
{ "type": "Feature", "properties": { "UID": 164, "development_description": "construction of one above ground 36 cubic meter x 3.5m high precast concrete storm holding tank, one above ground 36 cubic meter x 3.5m high precast concrete sludge holding tank & ancillary works", "development_address": "Kilpedder Wastewater Treatment Plant , Kilpedder , Co. Wicklow", "application_status": "APPLICATION FINALISED" }, "geometry": { "type": "Point", "coordinates": [ -6.115271821, 53.20901423 ] } },
{ "type": "Feature", "properties": { "UID": 165, "development_description": "a three bedroom family dwelling house with garage, installation of a waste water treatment system, a well & pump house, & widening of existing access laneway & creation of a joint entrance into adjacent sites & all associated site works", "development_address": "Knockrobin Farm , Rathnew , Co. Wicklow", "application_status": "APPLICATION FINALISED" }, "geometry": { "type": "Point", "coordinates": [ -6.600603086, 52.98086304 ] } },
{ "type": "Feature", "properties": { "UID": 166, "development_description": "minor modifications to front elevation including removal of front and side windows and replacing with new front door and sidelights in modified design, layout and size.  Minor modifications to east elevation to include addition of first floor window to match existing at a detached house", "development_address": "40 Woodlands , Greystones , Co. Wicklow", "application_status": "APPLICATION FINALISED" }, "geometry": { "type": "Point", "coordinates": [ -6.673472054, 52.99085518 ] } },
{ "type": "Feature", "properties": { "UID": 167, "development_description": "(1) demolition of existing single storey house (55sqm) & garage (18sqm), (2) a new three bedroom, part two storey & part single storey house (249sqm) to replace the existing house & (3) ancillary site works including a waste water treatment system in accordance with current EPA 2009 guidelines & a new parking area for two parking spaces", "development_address": "Gorse Cottage , Wicklow Gap Road , Glendalough", "application_status": "APPLICATION FINALISED" }, "geometry": { "type": "Point", "coordinates": [ -6.466464681, 53.20078392 ] } },
{ "type": "Feature", "properties": { "UID": 168, "development_description": "to construct a storey & a half / dormer style dwelling house, domestic garage, septic tank, associated percolation area, bored well, new site entrance off existing avenue, full planning permission is sought to upgrade existing roadside entrance to improve sight lines for proposed development, all ancillary site works & services", "development_address": "Englishtown , Baltinglass , Co. Wicklow", "application_status": "APPLICATION FINALISED" }, "geometry": { "type": "Point", "coordinates": [ -6.118277361, 53.19204973 ] } },
{ "type": "Feature", "properties": { "UID": 169, "development_description": "a three bedroom family dwelling house with garage, installation of a waste water treatment system, a well & pump house, & widening of existing access laneway & creation of a joint entrance into adjacent sites & all associated site works", "development_address": "Knockrobin Farm , Knockrobin , Rathnew", "application_status": "APPLICATION FINALISED" }, "geometry": { "type": "Point", "coordinates": [ -6.145016826, 52.88764696 ] } },
{ "type": "Feature", "properties": { "UID": 170, "development_description": "A) Permission for retention for 2 no. gable-ended windows at first floor (roof) level (one in each gable) & 4 no. 'velux' rooflights in rear roof pitch, all for the purposes of daylighting the existing (non habitable) roof space (used for domestic storage purposes only) and B) Permission for change of use, from occupants of the house complying with section 47 (section 38) as specified/restricted & imposed under condition no.2 of former planning permission (ref.no 3632/88) to a wider non restricted class of person. All at existing single-storey dwelling house", "development_address": "Rathballylong , Valleymount , Blessington", "application_status": "APPLICATION FINALISED" }, "geometry": { "type": "Point", "coordinates": [ -6.140034159, 52.87587085 ] } },
{ "type": "Feature", "properties": { "UID": 171, "development_description": "1) New dwelling house (126msq) with basement level (56msq) with glass roof finish to site area formerly used as tennis court to existing dwelling house, 2) New connection to existing foul & surface water services, 3) All requisite ancillary site works", "development_address": "'Macha Na Mbo' , Killgarran , Enniskerry", "application_status": "APPLICATION FINALISED" }, "geometry": { "type": "Point", "coordinates": [ -6.137319315, 52.81208538 ] } },
{ "type": "Feature", "properties": { "UID": 172, "development_description": "the reclamation of land through the filling of material comprising clay, silt, sand, gravel or stone for the purposes of improvements of land, together with site access & roadway & other ancillary site works", "development_address": "Cunniamstown Big , Rathdrum , Co. Wicklow", "application_status": "APPLICATION FINALISED" }, "geometry": { "type": "Point", "coordinates": [ -6.063872253, 53.14400177 ] } },
{ "type": "Feature", "properties": { "UID": 173, "development_description": "a free standing 39.5m high telecommunications mast with existing antennae, aerials, dishes, 3 no. single storey equipment buildings (11.8sqm), 2.4m high perimeter fencing with a vehicular gate, concrete pad foundations & all associated development works", "development_address": "(the townland of) , Ballynamuddagh , Bray", "application_status": "APPLICATION FINALISED" }, "geometry": { "type": "Point", "coordinates": [ -6.323690359, 52.88713776 ] } },
{ "type": "Feature", "properties": { "UID": 174, "development_description": "restoration of a large quarry void created by previous extraction of bedrock by backfilling to form a ground level and establishing a heathland / grassland habitat similar to that which existed prior to quarrying (2) establishment of an inert soil waste recovery facility to provide for the importation of approximately 3,280,000 tonnes of natural inert waste materials, principally excess soil, stones and / or broken rock to backfill the quarry void (3) construction of temporary site and services infrastructure including site office, staff welfare facilities, weighbridge (with dedicated office), wheelwash, settlement ponds, pumphouse, hardstand areas, fuel and water storage tanks, waste inspection and quarantine facility and storage sheds (4) temporary stockpiling of topsoil pending reuse as cover material for final restoration of the site.  The proposed development requires a waste licence from the Environmental Protection Agency. An Environmental Impact Statement will be submitted to the planning authority in connection with the application", "development_address": "Calary Quarry , Killough Upper & Glencap Commons Upper , Kilmacanogue", "application_status": "APPLICATION FINALISED" }, "geometry": { "type": "Point", "coordinates": [ -6.079667115, 52.99496199 ] } },
{ "type": "Feature", "properties": { "UID": 175, "development_description": "domestic garage / store", "development_address": "Tinnahinch , Avoca , Co. Wicklow", "application_status": "APPLICATION FINALISED" }, "geometry": { "type": "Point", "coordinates": [ -6.123608038, 52.88861151 ] } },
{ "type": "Feature", "properties": { "UID": 176, "development_description": "existing dwelling house, garage and outbuilding as constructed", "development_address": "Kilmurry Lower , Baltinglass , Co. Wicklow", "application_status": "APPLICATION FINALISED" }, "geometry": { "type": "Point", "coordinates": [ -6.198879362, 53.00381392 ] } },
{ "type": "Feature", "properties": { "UID": 177, "development_description": "removal of part of the front boundary wall and for the provision of a proposed vehicle access for an on site parking area to the front of the existing dwelling along with a pedestrian entrance ramp for improved accessibility and all associated site works", "development_address": "82 Rory O'Connor Place , Arklow , Co. Wicklow", "application_status": "APPLICATION FINALISED" }, "geometry": { "type": "Point", "coordinates": [ -6.670821406, 52.91066844 ] } },
{ "type": "Feature", "properties": { "UID": 178, "development_description": "all weather sports pitch (circa 37 metres x 44 metres), rebound and netted fencing (circa 6m high), floodlighting and all associated site works", "development_address": "Scoil Chonglais Post Primary School , Kiltegan Road , Baltinglass", "application_status": "APPLICATION FINALISED" }, "geometry": { "type": "Point", "coordinates": [ -6.07185228, 53.09167841 ] } },
{ "type": "Feature", "properties": { "UID": 179, "development_description": "domestic garage comprising c.51sqm to the north east side of house, block up existing entrance and construct new entrance (previously granted planning ref number 04/1884)", "development_address": "Ballymurrin Lower , Kilbride , Co. Wicklow", "application_status": "APPLICATION FINALISED" }, "geometry": { "type": "Point", "coordinates": [ -6.27298078, 52.87720757 ] } },
{ "type": "Feature", "properties": { "UID": 180, "development_description": "two new high level ground floor windows to existing gable", "development_address": "Maycote , Loreto Avenue , Bray", "application_status": "APPLICATION FINALISED" }, "geometry": { "type": "Point", "coordinates": [ -6.058870538, 52.89254965 ] } },
{ "type": "Feature", "properties": { "UID": 181, "development_description": "new double garage to N.E side of existing house with a wash-up area comprising a sink & a W.C.", "development_address": "8 Lakelands , Knockrobin , Rathnew", "application_status": "APPLICATION FINALISED" }, "geometry": { "type": "Point", "coordinates": [ -6.116574359, 53.19655609 ] } },
{ "type": "Feature", "properties": { "UID": 182, "development_description": "to construct a slatted cubicle shed, concrete aprons & associated site works in my farmyard", "development_address": "Ballycumber North , Tinahely , Co. Wicklow", "application_status": "APPLICATION FINALISED" }, "geometry": { "type": "Point", "coordinates": [ -6.102502408, 53.20030061 ] } },
{ "type": "Feature", "properties": { "UID": 183, "development_description": "dwelling, waste water treatment system to EPA 2009 standards, garage & new entrance", "development_address": "Ballybeg , Tinahely , Co. Wicklow", "application_status": "APPLICATION FINALISED" }, "geometry": { "type": "Point", "coordinates": [ -6.229908815, 52.90603444 ] } },
{ "type": "Feature", "properties": { "UID": 184, "development_description": "change of house type to dwellings no.1 to 3 Fortwilliam as granted under PRR. 15/817 & 14/1816", "development_address": "Fortwilliam , Burkeen Hall , Wicklow Town", "application_status": "APPLICATION FINALISED" }, "geometry": { "type": "Point", "coordinates": [ -6.177042518, 53.03327757 ] } },
{ "type": "Feature", "properties": { "UID": 185, "development_description": "cubicle/slatted shed, concrete aprons, slatted tank, feed passage, concrete apron, over ground steel slurry store & associated site works", "development_address": "Knockeen , Tullow , Co. Carlow", "application_status": "APPLICATION FINALISED" }, "geometry": { "type": "Point", "coordinates": [ -6.064632416, 53.14490002 ] } },
{ "type": "Feature", "properties": { "UID": 186, "development_description": "detached single storey garage with pitched roof to the rear", "development_address": "Duck Walk Lane , Killadreenan , Newtownmountkennedy", "application_status": "APPLICATION FINALISED" }, "geometry": { "type": "Point", "coordinates": [ -6.102565388, 53.20040182 ] } },
{ "type": "Feature", "properties": { "UID": 187, "development_description": "to construct a single storey dwelling house, domestic garage, septic tank & associated percolation area, bored well, full planning permission is sought to carry out upgrade works to existing residential / farm entrance to accommodate proposed development, all ancillary site works & services", "development_address": "Rathbran , Grangecon , Co. Wicklow", "application_status": "APPLICATION FINALISED" }, "geometry": { "type": "Point", "coordinates": [ -6.193241649, 52.83340684 ] } },
{ "type": "Feature", "properties": { "UID": 188, "development_description": "an additional gateway at the south-east corner of the site of the residential property, altered ground levels & a 34sqm detached garage located 1.4m from the eastern boundary & 2.4m from the garage attached to the neighbouring house", "development_address": "Duneen , Parknasilloge , Enniskerry", "application_status": "APPLICATION FINALISED" }, "geometry": { "type": "Point", "coordinates": [ -6.111333543, 53.20233733 ] } },
{ "type": "Feature", "properties": { "UID": 189, "development_description": "revised floor level of approved 3 bedroom detached bungalow as granted planning permission under ref number 15/679 in keeping with adjoining houses on either side", "development_address": "Kilmacanogue South , Kilmacanogue , Co. Wicklow", "application_status": "APPLICATION FINALISED" }, "geometry": { "type": "Point", "coordinates": [ -6.147632676, 52.96561378 ] } },
{ "type": "Feature", "properties": { "UID": 190, "development_description": "to construct 6 no. 1-storey circular detached dwellings & ancillary site development works", "development_address": "Ballybeg , Ballinacor South , Co. Wicklow", "application_status": "APPLICATION FINALISED" }, "geometry": { "type": "Point", "coordinates": [ -6.19837963, 53.00332477 ] } },
{ "type": "Feature", "properties": { "UID": 191, "development_description": "erection of 2 no prefabricated classrooms (circa 164 sqm) and all associated site works", "development_address": "Greystones Community National School , Mill Road , Greystones", "application_status": "APPLICATION FINALISED" }, "geometry": { "type": "Point", "coordinates": [ -6.32266256, 52.85300375 ] } },
{ "type": "Feature", "properties": { "UID": 192, "development_description": "development on a site of c. 79 ha at The Wicklow Arms Public House & lands to the rear, Delgany, Co. Wicklow. The development (located in an Architectural Conservation area) shall consist of the demolition of the esisting single storey dance studio/office building (c.173.9sqm) & the demolition of 2-storey building (c.915sqm) to the rear of The Wicklow Arms Public House (a protected structure), (the demolition works do not relate to any aspect of the protected structure); & the construction of a village centre development (overall GFA c.2,892.7sqm) comprising 22 residential units (12 no. house units & 10 no. apartment units); & retail, office, & restaurant development. The residential component of the scheme (c. 2,091.4sqm) shall comprise 12x3 bedroom house units (c.103.3sqm - 125.5sqm) in a combination of 2-storey terraced semi detached & detached house units (Blocks A-d); & 2x1 bedroom apartment units (c.59.5sqm) & 8x2 bedroom apartments (c.78.8 - 83.4sqm) in a new village centre building (3-storeys). The commercial element of the scheme (801.3sqm) shall comprise redevelopment of The Wicklow Arms Public House (a protected structure) including internal alterations to provide for change of use from former public house to restaurant use (c. 227.5sqm), 2 retail units (c. 44.4sqm) & 73.5sqm), 3 office units (c. 89.1sqm, 109.3sqm & 80.9sqm respectively). The proposal shall also provide for c. 78 no. car parking spaces; bicycle parking; public open spaces areas; private open space areas in the form of rear gardens & balcony/terrace areas associated with the residential units; provision for a new pedestrian link from the Delgany Inn carpark; all landscaping works including boundary treatment; bin storage facilities; apartment storage units; new access road via Bellevue Court, Delgany; new service connections & surface upgrade works; & all associates site development works", "development_address": "The Wicklow Arms , Delgany , Co. Wicklow", "application_status": "APPLICATION FINALISED" }, "geometry": { "type": "Point", "coordinates": [ -6.231445707, 52.93122812 ] } },
{ "type": "Feature", "properties": { "UID": 193, "development_description": "development consisting of new dormer storey house, wastewater treatment system, new entrance, 36.5sqm detached garage & associated works", "development_address": "Humphreystown , Valleymount , Co. Wicklow", "application_status": "APPLICATION FINALISED" }, "geometry": { "type": "Point", "coordinates": [ -6.149068304, 52.80662976 ] } },
{ "type": "Feature", "properties": { "UID": 194, "development_description": "change of use of an existing vacant development from a concrete block manufacturing facility to the storage and natural drying of 2,000 tonnes of timber, sourced mainly from the local forestry and related sectors.  The proposal also includes the erection of external walls and an internal partition at an existing 6543 sqm structure, to create an enclosed storage unit of 2178 sqm (with the remaining 4365 sqm in this feature, which is in a roofed open sided condition, not forming part of this application).  This application also seeks permission for the upgrade of the existing on site wastewater treatment system, the installation of a weighbridge and permission for the retention of a 268 sqm plant room and a separate vacant building containing 253.5 sqm which will be used as an office in connection with this timber proposal, including a non habitable roof of 75 sqm which will be used as an office store along with all ancillary works and related uses, including car parking and equipment storage", "development_address": "Whitestown Lower , Stratford on Slaney , Baltinglass", "application_status": "APPLICATION FINALISED" }, "geometry": { "type": "Point", "coordinates": [ -6.085146676, 52.92597023 ] } },
{ "type": "Feature", "properties": { "UID": 195, "development_description": "a residential development comprising of demolition of existing glass house & sheds & construction of 7 no 138sqm, 2 storey 4 bedroom terraced dwellings, with attic accommodation & roof lights with access via the existing Upper Dargle Road together with connection to all existing services, associated landscaping & all ancillary site works at lands formally used as south side garden", "development_address": "(south side garden to)'Waterside' , Upper Dargle Road , Bray", "application_status": "APPLICATION FINALISED" }, "geometry": { "type": "Point", "coordinates": [ -6.445729555, 52.77316377 ] } },
{ "type": "Feature", "properties": { "UID": 196, "development_description": "to complete the bungalow dwelling & garage with all associated site works previously granted planning ref. no. 07/1228 & retention permission is sought for works done to date", "development_address": "Rath East , Tullow , Co. Wicklow", "application_status": "APPLICATION FINALISED" }, "geometry": { "type": "Point", "coordinates": [ -6.103896364, 53.18924614 ] } },
{ "type": "Feature", "properties": { "UID": 197, "development_description": "retention of existing agricultural entrance & all associated site works", "development_address": "Potterhill , Ballynagran , Dunganstown", "application_status": "APPLICATION FINALISED" }, "geometry": { "type": "Point", "coordinates": [ -6.297049818, 52.94166093 ] } },
{ "type": "Feature", "properties": { "UID": 198, "development_description": "house owner operated and staffed 23.4 sqm gross log cabin type building at rear of house to be used as a preschool facility 9.00 a.m. to 12.30 p.m. for up to 10 children to replace an existing permitted 17 sqm unit creche facility", "development_address": "5 Grahams Court , Wicklow Town ", "application_status": "APPLICATION FINALISED" }, "geometry": { "type": "Point", "coordinates": [ -6.116434336, 53.20477236 ] } },
{ "type": "Feature", "properties": { "UID": 199, "development_description": "erection of a 275 cubic metre capacity glass lined steel water storage reservoir, together with ancillary pipework and fittings and other ancillary works on the site of the existing water storage tank compound", "development_address": "Kilpoole Hill , Wicklow ", "application_status": "APPLICATION FINALISED" }, "geometry": { "type": "Point", "coordinates": [ -6.216546595, 52.93753299 ] } },
{ "type": "Feature", "properties": { "UID": 200, "development_description": "part change of use from female, male changing areas and shared space to a Montessori Class", "development_address": "Wolfe Tony Community Centre , Temple Sportsfield , Vevay Road", "application_status": "APPLICATION FINALISED" }, "geometry": { "type": "Point", "coordinates": [ -6.098414469, 52.85790098 ] } },